NAME,POP_MAX,CENTROID_LON,CENTROID_LAT
africa,1030400000,18.614400292372707,2.782648292539899
antarctica,0,11.562356006033104,-68.5090810896169
asia,4157300000,91.58747977791079,32.42367102463343
europe,738600000,20.455133477407436,50.55902123484467
north_america,461114000,-95.8189796676817,36.821446616508005
oceania,36700000,135.01643707556659,-28.754185019112118
south_america,390700000,-60.348339161535975,-16.636964266350514
